{
    "type": "FeatureCollection",
    "features": [
      {
        "type": "Feature",
        "properties": {
          "id": 1,
          "mra_id": 1,
          "name": "Alyssa Teves",
          "email": "alyssakristins@gmail.com",
          "country": "Philippines",
          "timezone": "Asia/Manila"
        },
        "geometry": {
          "type": "Point",
          "coordinates": [121.2842, 14.5995]
        }
      },
      {
        "type": "Feature",
        "properties": {
          "id": 2,
          "mra_id": 2,
          "name": "Beatrice Solon",
          "email": "beatricesolon@gmail.com",
          "country": "Philippines",
          "timezone": "Asia/Manila"
        },
        "geometry": {
          "type": "Point",
          "coordinates": [120.9842, 15.5995]
        }
      },
      {
        "type": "Feature",
        "properties": {
          "id": 3,
          "mra_id": 3,
          "name": "Becca Kennedy",
          "email": "becca@peerlinkmedical.com",
          "country": "United States",
          "timezone": "America/Chicago"
        },
        "geometry": {
          "type": "Point",
          "coordinates": [-86.7111, 33.4071]
        }
      },
      {
        "type": "Feature",
        "properties": {
          "id": 4,
          "mra_id": 4,
          "name": "Chukwudi Akubueze",
          "email": "kudiakubueze@gmail.com",
          "country": "Nigeria",
          "timezone": "Africa/Lagos"
        },
        "geometry": {
          "type": "Point",
          "coordinates": [3.8792, 6.5244]
        }
      },
      {
        "type": "Feature",
        "properties": {
          "id": 5,
          "mra_id": 5,
          "name": "Chris Ekundare",
          "email": "chrisekundare@gmail.com",
          "country": "Nigeria",
          "timezone": "Africa/Lagos"
        },
        "geometry": {
          "type": "Point",
          "coordinates": [3.9792, 6.9244]
        }
      },
      {
        "type": "Feature",
        "properties": {
          "id": 6,
          "mra_id": 6,
          "name": "Dilay Ackan",
          "email": "dilay.akcan@gmail.com",
          "country": "Turkey",
          "timezone": "Europe/Istanbul"
        },
        "geometry": {
          "type": "Point",
          "coordinates": [28.8784, 41.2082]
        }
      },
      {
        "type": "Feature",
        "properties": {
          "id": 7,
          "mra_id": 7,
          "name": "Ebenezer Arisa",
          "email": "ebenezerarisa17@gmail.com",
          "country": "Philippines",
          "timezone": "Asia/Manila"
        },
        "geometry": {
          "type": "Point",
          "coordinates": [122.9842, 13.5995]
        }
      },
      {
        "type": "Feature",
        "properties": {
          "id": 8,
          "mra_id": 8,
          "name": "Emmanuel Uduigwome",
          "email": "eo.uduigwome@gmail.com",
          "country": "Nigeria",
          "timezone": "Africa/Lagos"
        },
        "geometry": {
          "type": "Point",
          "coordinates": [4.3792, 9.5244]
        }
      },
      {
        "type": "Feature",
        "properties": {
          "id": 9,
          "mra_id": 9,
          "name": "Eliza Gomez",
          "email": "elizagomeztoro4545@gmail.com",
          "country": "Colombia",
          "timezone": "America/Bogota"
        },
        "geometry": {
          "type": "Point",
          "coordinates": [-76.0721, 5.7110]
        }
      },
      {
        "type": "Feature",
        "properties": {
          "id": 10,
          "mra_id": 10,
          "name": "Erika Sucgang",
          "email": "theerikajee@gmail.com",
          "country": "Philippines",
          "timezone": "Asia/Manila"
        },
        "geometry": {
          "type": "Point",
          "coordinates": [120.9842, 17.5995]
        }
      },
      {
        "type": "Feature",
        "properties": {
          "id": 11,
          "mra_id": 11,
          "name": "Geni Payales",
          "email": "grpayales@gmail.com",
          "country": "Philippines",
          "timezone": "Asia/Manila"
        },
        "geometry": {
          "type": "Point",
          "coordinates": [121.9842, 16.5995]
        }
      },
      {
        "type": "Feature",
        "properties": {
          "id": 12,
          "mra_id": 12,
          "name": "Ieva Puidoke",
          "email": "Ieva.puidoke@gmail.com",
          "country": "Lithuania",
          "timezone": "Europe/Vilnius"
        },
        "geometry": {
          "type": "Point",
          "coordinates": [25.2797, 54.6872]
        }
      },
      {
        "type": "Feature",
        "properties": {
          "id": 13,
          "mra_id": 13,
          "name": "Ileri Lawal",
          "email": "ilerioluwalawal@outlook.com",
          "country": "Nigeria",
          "timezone": "Africa/Lagos"
        },
        "geometry": {
          "type": "Point",
          "coordinates": [5.6792, 8.5244]
        }
      },
      {
        "type": "Feature",
        "properties": {
          "id": 14,
          "mra_id": 14,
          "name": "Iyanuoluwa Oni",
          "email": "iyanuopemipo@gmail.com",
          "country": "Nigeria",
          "timezone": "Africa/Lagos"
        },
        "geometry": {
          "type": "Point",
          "coordinates": [6.3792, 7.5244]
        }
      },
      {
        "type": "Feature",
        "properties": {
          "id": 15,
          "mra_id": 15,
          "name": "Joshua Arisa",
          "email": "joshuaarisa14@gmail.com",
          "country": "Philippines",
          "timezone": "Asia/Manila"
        },
        "geometry": {
          "type": "Point",
          "coordinates": [120.9842, 12.5995]
        }
      },
      {
        "type": "Feature",
        "properties": {
          "id": 16,
          "mra_id": 16,
          "name": "Joan Ajayi",
          "email": "joanoajayi@gmail.com",
          "country": "Philippines",
          "timezone": "Asia/Manila"
        },
        "geometry": {
          "type": "Point",
          "coordinates": [123.9842, 11.8995]
        }
      },
      {
        "type": "Feature",
        "properties": {
          "id": 17,
          "mra_id": 17,
          "name": "Khwaish Vasnani",
          "email": "khwaishvasnani@gmail.com",
          "country": "Philippines",
          "timezone": "Asia/Manila"
        },
        "geometry": {
          "type": "Point",
          "coordinates": [122.9842, 9.5995]
        }
      },
      {
        "type": "Feature",
        "properties": {
          "id": 18,
          "mra_id": 18,
          "name": "Lina Gutierrez",
          "email": "linis2791@gmail.com",
          "country": "Colombia",
          "timezone": "America/Bogota"
        },
        "geometry": {
          "type": "Point",
          "coordinates": [-74.0721, 4.7110]
        }
      },
      {
        "type": "Feature",
        "properties": {
          "id": 19,
          "mra_id": 19,
          "name": "Mary Goyenechea",
          "email": "lorensgee1@gmail.com",
          "country": "Philippines",
          "timezone": "Asia/Manila"
        },
        "geometry": {
          "type": "Point",
          "coordinates": [120.1842, 13.7295]
        }
      },
      {
        "type": "Feature",
        "properties": {
          "id": 20,
          "mra_id": 20,
          "name": "Mary Galos",
          "email": "cornillezjoyce@gmail.com",
          "country": "Philippines",
          "timezone": "Asia/Manila"
        },
        "geometry": {
          "type": "Point",
          "coordinates": [121.9842, 18.0995]
        }
      },
      {
        "type": "Feature",
        "properties": {
          "id": 21,
          "mra_id": 21,
          "name": "Maja Loja",
          "email": "lojamaja@gmail.com",
          "country": "Philippines",
          "timezone": "Asia/Manila"
        },
        "geometry": {
          "type": "Point",
          "coordinates": [121.9842, 14.6995]
        }
      },
      {
        "type": "Feature",
        "properties": {
          "id": 22,
          "mra_id": 22,
          "name": "Next Reviewer",
          "email": "test@gmail.com",
          "country": "Nigeria",
          "timezone": "Africa/Lagos"
        },
        "geometry": {
          "type": "Point",
          "coordinates": [3.3792, 6.5244]
        }
      },
      {
        "type": "Feature",
        "properties": {
          "id": 23,
          "mra_id": 23,
          "name": "Oluseye Oluremi",
          "email": "oluseyekoluremi@su.edu.ph",
          "country": "Nigeria",
          "timezone": "Africa/Lagos"
        },
        "geometry": {
          "type": "Point",
          "coordinates": [3.3792, 7.5244]
        }
      },
      {
        "type": "Feature",
        "properties": {
          "id": 24,
          "mra_id": 24,
          "name": "Oluwadamilola Ogunsemowo",
          "email": "damilolamogunsemowo@gmail.com",
          "country": "Nigeria",
          "timezone": "Africa/Lagos"
        },
        "geometry": {
          "type": "Point",
          "coordinates": [5.9792, 6.8244]
        }
      },
      {
        "type": "Feature",
        "properties": {
          "id": 25,
          "mra_id": 25,
          "name": "Thomas Oyinlola",
          "email": "thomasoyinlola@yahoo.com",
          "country": "Nigeria",
          "timezone": "Africa/Lagos"
        },
        "geometry": {
          "type": "Point",
          "coordinates": [5.3792, 5.5244]
        }
      },
      {
        "type": "Feature",
        "properties": {
          "id": 26,
          "mra_id": 26,
          "name": "Ravit Haleva",
          "email": "ravithaleva@gmail.com",
          "country": "Turkey",
          "timezone": "Europe/Istanbul"
        },
        "geometry": {
          "type": "Point",
          "coordinates": [28.9784, 41.0082]
        }
      },
      {
        "type": "Feature",
        "properties": {
          "id": 27,
          "mra_id": 27,
          "name": "Sarah Watkins",
          "email": "sarahw445@gmail.com",
          "country": "Philippines",
          "timezone": "Asia/Manila"
        },
        "geometry": {
          "type": "Point",
          "coordinates": [125.9842, 8.5995]
        }
      },
      {
        "type": "Feature",
        "properties": {
          "id": 28,
          "mra_id": 28,
          "name": "Shaila Maramara",
          "email": "shailamaramara@gmail.com",
          "country": "Philippines",
          "timezone": "Asia/Manila"
        },
        "geometry": {
          "type": "Point",
          "coordinates": [123.9842, 9.5995]
        }
      },
      {
        "type": "Feature",
        "properties": {
          "id": 29,
          "mra_id": 29,
          "name": "Vincent Medicielo",
          "email": "medicielo.prosvincent@gmail.com",
          "country": "Philippines",
          "timezone": "Asia/Manila"
        },
        "geometry": {
          "type": "Point",
          "coordinates": [121.1842, 15.2995]
        }
      },
      {
        "type": "Feature",
        "properties": {
          "id": 30,
          "mra_id": 30,
          "name": "Will Smith",
          "email": "will@peerlinkmedical.com",
          "country": "United States",
          "timezone": "America/Chicago"
        },
        "geometry": {
          "type": "Point",
          "coordinates": [-86.6111, 33.4171]
        }
      },
      {
        "type": "Feature",
        "properties": {
          "id": 31,
          "mra_id": 31,
          "name": "Yllana Saavedra",
          "email": "iyannsaavedra@gmail.com",
          "country": "Philippines",
          "timezone": "Asia/Manila"
        },
        "geometry": {
          "type": "Point",
          "coordinates": [121.0842, 12.2185]
        }
      },
      {
        "type": "Feature",
        "properties": {
          "id": 32,
          "mra_id": 32,
          "name": "Temilola Edun",
          "email": "temilolaedun@outlook.com",
          "country": "Nigeria",
          "timezone": "Africa/Lagos"
        },
        "geometry": {
          "type": "Point",
          "coordinates": [7.3792, 5.5244]
        }
      },
      {
        "type": "Feature",
        "properties": {
          "id": 33,
          "mra_id": 33,
          "name": "Toluwani Merari",
          "email": "nt.merari@gmail.com",
          "country": "Nigeria",
          "timezone": "Africa/Lagos"
        },
        "geometry": {
          "type": "Point",
          "coordinates": [8.3792, 6.5244]
        }
      },
      {
        "type": "Feature",
        "properties": {
          "id": 34,
          "mra_id": 34,
          "name": "Oluwapelumi Gabriel",
          "email": "pelumio.gabriel@gmail.com",
          "country": "Nigeria",
          "timezone": "Africa/Lagos"
        },
        "geometry": {
          "type": "Point",
          "coordinates": [9.3792, 8.5244]
        }
      },
      {
        "type": "Feature",
        "properties": {
          "id": 35,
          "mra_id": 35,
          "name": "Tolulope Ajayi",
          "email": "to.ajayimd@gmail.com",
          "country": "Nigeria",
          "timezone": "Africa/Lagos"
        },
        "geometry": {
          "type": "Point",
          "coordinates": [6.3792, 9.5244]
        }
      },
      {
        "type": "Feature",
        "properties": {
          "id": 36,
          "mra_id": 36,
          "name": "Addison Marimberga",
          "email": "addison@peerlinkmedical.com",
          "country": "United States",
          "timezone": "America/Chicago"
        },
        "geometry": {
          "type": "Point",
          "coordinates": [-86.5210, 33.4621]
        }
      },
      {
        "type": "Feature",
        "properties": {
          "id": 37,
          "mra_id": 37,
          "name": "Goodluck Odii",
          "email": "goodluckmodii@gmail.com",
          "country": "Nigeria",
          "timezone": "Africa/Lagos"
        },
        "geometry": {
          "type": "Point",
          "coordinates": [5.8792, 9.8244]
        }
      },
      {
        "type": "Feature",
        "properties": {
          "id": 38,
          "mra_id": 38,
          "name": "Fiyinfoluwa Yemi-Lebi",
          "email": "fiyinmlebi@gmail.com",
          "country": "Nigeria",
          "timezone": "Africa/Lagos"
        },
        "geometry": {
          "type": "Point",
          "coordinates": [9.3792, 7.1244]
        }
      },
      {
        "type": "Feature",
        "properties": {
          "id": 39,
          "mra_id": 39,
          "name": "Elizabeth Adeyanju",
          "email": "elizabethmadeyanju@gmail.com",
          "country": "Nigeria",
          "timezone": "Africa/Lagos"
        },
        "geometry": {
          "type": "Point",
          "coordinates": [5.3792, 10.5244]
        }
      },
      {
        "type": "Feature",
        "properties": {
          "id": 40,
          "mra_id": 40,
          "name": "Opemipo Ade-Akingboye",
          "email": "opemipomade@gmail.com",
          "country": "Nigeria",
          "timezone": "Africa/Lagos"
        },
        "geometry": {
          "type": "Point",
          "coordinates": [4.8192, 6.1123]
        }
      },
      {
        "type": "Feature",
        "properties": {
          "id": 41,
          "mra_id": 41,
          "name": "Lebari Damgbor",
          "email": "lebarimdamgbor@gmail.com",
          "country": "Nigeria",
          "timezone": "Africa/Lagos"
        },
        "geometry": {
          "type": "Point",
          "coordinates": [7.3792, 12.5244]
        }
      },
      {
        "type": "Feature",
        "properties": {
          "id": 42,
          "mra_id": 42,
          "name": "Uchechukwu Ejike",
          "email": "uchemejike@gmail.com",
          "country": "Nigeria",
          "timezone": "Africa/Lagos"
        },
        "geometry": {
          "type": "Point",
          "coordinates": [6.3712, 11.1244]
        }
      },
      {
        "type": "Feature",
        "properties": {
          "id": 43,
          "mra_id": 43,
          "name": "Oluwaseyi Adare",
          "email": "oluwaseyimadare@gmail.com",
          "country": "Nigeria",
          "timezone": "Africa/Lagos"
        },
        "geometry": {
          "type": "Point",
          "coordinates": [6.0312, 8.5944]
        }
      },
      {
        "type": "Feature",
        "properties": {
          "id": 44,
          "mra_id": 44,
          "name": "Mariam Akubo",
          "email": "mariammakubo@gmail.com",
          "country": "Nigeria",
          "timezone": "Africa/Lagos"
        },
        "geometry": {
          "type": "Point",
          "coordinates": [9.3792, 6.5244]
        }
      },
      {
        "type": "Feature",
        "properties": {
          "id": 45,
          "mra_id": 45,
          "name": "Jamiu Olurunnisola",
          "email": "jamiumolorunnisola@gmail.com",
          "country": "Nigeria",
          "timezone": "Africa/Lagos"
        },
        "geometry": {
          "type": "Point",
          "coordinates": [12.3792, 9.5244]
        }
      },
      {
        "type": "Feature",
        "properties": {
          "id": 46,
          "mra_id": 46,
          "name": "Al Ameen Kalejaiye",
          "email": "alameenmkalejaiye@gmail.com",
          "country": "Nigeria",
          "timezone": "Africa/Lagos"
        },
        "geometry": {
          "type": "Point",
          "coordinates": [11.1792, 10.5244]
        }
      },
      {
        "type": "Feature",
        "properties": {
          "id": 47,
          "mra_id": 47,
          "name": "Solomon Bailey",
          "email": "solomonmbailey@gmail.com",
          "country": "Nigeria",
          "timezone": "Africa/Lagos"
        },
        "geometry": {
          "type": "Point",
          "coordinates": [11.3792, 11.5244]
        }
      },
      {
        "type": "Feature",
        "properties": {
          "id": 48,
          "mra_id": 48,
          "name": "Oluwafemi Durojaiye",
          "email": "oluwafemimdurojaiye@gmail.com",
          "country": "Nigeria",
          "timezone": "Africa/Lagos"
        },
        "geometry": {
          "type": "Point",
          "coordinates": [9.3792, 11.5244]
        }
      }
    ]
  }
  